{
  "0": {
    "name": "CHU MUSTAPHA",
    "lat": 36.76184927705564,
    "lng": 3.056220967141742
  },
  "1": {
    "name": "CHU BENI MESSOUS",
    "lat": 36.778942158808825,
    "lng": 2.981616595880589
  },
  "2": {
    "name": "CHU PARNET",
    "lat": 36.73662535711364,
    "lng": 3.1056997885320508
  },
  "3": {
    "name": "CHU BAB EL OUED",
    "lat": 36.794798305956554,
    "lng": 3.049253601597717
  },
  "4": {
    "name": "EPH BOLOGHINE IBN ZIRI",
    "lat": 36.81053607735412,
    "lng": 2.979109130267227
  },
  "5": {
    "name": "EPH EL HARRACH (HASSEN BADI)",
    "lat": 36.71650344385953,
    "lng": 3.137406413525128
  },
  "6": {
    "name": "EPH ALI MEGHRAOUI AIN TAYA",
    "lat": 36.788992906885156,
    "lng": 3.294619878347408
  },
  "7": {
    "name": "EPH KOUBA (BACHIR MENTOURI)",
    "lat": 36.72654832938582,
    "lng": 3.0867519644429255
  },
  "8": {
    "name": "EPH ZERALDA (BOUKACEMI TAYEB)",
    "lat": 36.700149436671516,
    "lng": 2.842949678683974
  },
  "9": {
    "name": "CHU DJELLALI BOUNAAMA DOUERA",
    "lat": 36.66788,
    "lng": 2.94074
  },
  "10": {
    "name": "EPH ROUIBA",
    "lat": 36.7351221, 
    "lng": 3.2857812
  },
  "11": {
    "name": "EHS MEDECINE DU SPORT ET CARDIO VASCULAIRE DR M",
    "lat": 0,
    "lng": 0
  },
  "12": {
    "name": "EPH DES URGENCES MEDICO- CHIRURGICALES SALIM ZMIRLI",
    "lat": 36.70350161385004,
    "lng": 3.1237470153427234
  },
  "13": {
    "name": "EPH BIRTRARIA (DJILLALI BELKHENCHIR)",
    "lat": 36.7731211148808,
    "lng": 3.040074624524836
  },
  "14": {
    "name": "EPH EL MOURADIA (DJILLALI RAHMOUNI)",
    "lat": 36.75501513312083,
    "lng": 3.0382372929797765
  },
  "15": {
    "name": "EHS DES BRULES ALGER",
    "lat": 36.77224682267169,
    "lng": 3.0566796598245567
  },
  "16": {
    "name": "EHS APPAREIL LOCOMOTEUR DE BEN AKNOUN ALGER",
    "lat": 36.75463665801327,
    "lng": 3.0010462208468907
  },
  "17": {
    "name": "EHS NEURO CHIRURGICAL ALI AIT IDIR ALGER",
    "lat": 36.78744933340281,
    "lng": 3.0581691415269705
  },
  "18": {
    "name": "EHS DES MALADIES INFECTIEUSES DR EL HADI FLICI",
    "lat": 36.753771082223395,
    "lng": 3.0587604576713616
  },
  "19": {
    "name": "EHS CHIRURGIE CARDIAQUE ABDERRAHMANI MOHAMED",
    "lat": 36.734292613789705,
    "lng": 3.0529179846572765
  },
  "20": {
    "name": "EHS ANTI CANCEREUX CPMC ALGER",
    "lat": 36.76052857691805,
    "lng": 3.054136867043932
  }
}
